[{"id": "X4", "hr": 82.0, "lat": 41.3839, "altitude": 33.0, "temp": 15.5, "dist": 0.05763317026178216, "lon": 2.16775, "pcp": 0.0, "tw": 15.499, "name": "Barcelona - el Raval", "td": 12.4594281569709}, {"id": "XB", "hr": 94.0, "lat": 41.4779, "altitude": 584.0, "temp": 14.1, "dist": 0.615415934485707, "lon": 1.53529, "pcp": 0.0, "tw": 14.099, "name": "la Llacuna", "td": 13.126765275777164}, {"id": "VD", "hr": 100.0, "lat": 41.68939, "altitude": 429.0, "temp": 2.9, "dist": 0.8466063827837792, "lon": 1.20381, "pcp": 0.0, "tw": 2.899, "name": "el Can\u00f3s", "td": 2.9}, {"id": "XS", "hr": 97.0, "lat": 41.86489, "altitude": 162.0, "temp": 14.2, "dist": 0.5064633964725846, "lon": 2.66446, "pcp": 0.0, "tw": 14.199, "name": "Santa Coloma de Farners", "td": 13.714461776460189}, {"id": "WM", "hr": 89.0, "lat": 42.10736, "altitude": 1167.0, "temp": 11.6, "dist": 0.9111369474342711, "lon": 1.8267, "pcp": 0.0, "tw": 11.599, "name": "Santuari de Queralt", "td": 9.831146145884011}, {"id": "D3", "hr": 95.0, "lat": 41.38197, "altitude": 252.0, "temp": 15.5, "dist": 0.3346458014419661, "lon": 1.93564, "pcp": 0.0, "tw": 15.499, "name": "Vallirana", "td": 14.681931381979485}, {"id": "WP", "hr": 96.0, "lat": 41.48518, "altitude": 325.0, "temp": 14.3, "dist": 0.5872107446900494, "lon": 1.69337, "pcp": 0.0, "tw": 14.299000000000001, "name": "Canaletes", "td": 13.651667006203008}, {"id": "XJ", "hr": 100.0, "lat": 41.98223, "altitude": 72.0, "temp": 15.0, "dist": 0.5785327296773162, "lon": 2.80686, "pcp": 0.0, "tw": 14.999, "name": "Girona", "td": 15.0}, {"id": "VY", "hr": 93.0, "lat": 41.25095, "altitude": 240.0, "temp": 16.4, "dist": 0.3356902875941803, "lon": 1.29863, "pcp": 0.0, "tw": 16.398999999999997, "name": "Nulles", "td": 15.244495895476447}, {"id": "YC", "hr": 98.0, "lat": 42.24388, "altitude": 508.0, "temp": 9.9, "dist": 0.9777292567550842, "lon": 0.96802, "pcp": 0.0, "tw": 9.899000000000001, "name": "la Pobla de Segur", "td": 9.5862923141881}, {"id": "UM", "hr": 100.0, "lat": 41.35991, "altitude": 505.0, "temp": 7.3, "dist": 0.7375371770980843, "lon": 0.66789, "pcp": 0.0, "tw": 7.2989999999999995, "name": "la Granadella", "td": 7.3}, {"id": "U1", "hr": 100.0, "lat": 42.30648, "altitude": 31.0, "temp": 14.3, "dist": 0.387696427565525, "lon": 2.95481, "pcp": 0.0, "tw": 14.299000000000001, "name": "Cabanes", "td": 14.3}, {"id": "WE", "hr": 95.0, "lat": 41.5444, "altitude": 126.0, "temp": 16.2, "dist": 0.19409217137368695, "lon": 2.30014, "pcp": 0.0, "tw": 16.198999999999998, "name": "Vilanova del Vall\u00e8s", "td": 15.377928855628237}, {"id": "Z1", "hr": 41.0, "lat": 42.64691, "altitude": 2266.0, "temp": 4.5, "dist": 0.993697744730038, "lon": 0.98486, "pcp": 0.0, "tw": 4.499, "name": "Bonaigua (2.266 m)", "td": -7.729227236883582}, {"id": "MQ", "hr": 98.0, "lat": 41.92047, "altitude": 402.0, "temp": 13.4, "dist": 0.8768505100374637, "lon": 1.69584, "pcp": 0.0, "tw": 13.399000000000001, "name": "Cardona", "td": 13.07830839549125}, {"id": "XF", "hr": 96.0, "lat": 41.56568, "altitude": 258.0, "temp": 14.8, "dist": 0.4545723579255707, "lon": 2.06952, "pcp": 0.0, "tw": 14.799000000000001, "name": "Sabadell - Parc Agrari", "td": 14.149382457015383}, {"id": "W5", "hr": 100.0, "lat": 42.07683, "altitude": 490.0, "temp": 13.7, "dist": 0.9514211326844544, "lon": 1.31489, "pcp": 0.0, "tw": 13.699, "name": "Oliana", "td": 13.7}, {"id": "CE", "hr": 96.0, "lat": 41.53109, "altitude": 316.0, "temp": 15.5, "dist": 0.6191672848200354, "lon": 1.80813, "pcp": 0.0, "tw": 15.499, "name": "els Hostalets de Pierola", "td": 14.846184067573496}, {"id": "WN", "hr": 68.0, "lat": 41.59539, "altitude": 916.0, "temp": 11.9, "dist": 0.6802368011611253, "lon": 1.83751, "pcp": 0.0, "tw": 11.899000000000001, "name": "Montserrat - Sant Dimes", "td": 6.244982196662645}, {"id": "X2", "hr": 94.0, "lat": 41.38943, "altitude": 7.0, "temp": 14.8, "lon": 2.18847, "dist": 0.026745839472541943, "tw": 14.799000000000001, "name": "Barcelona - Zoo", "td": 13.821955792426916}, {"id": "WR", "hr": 100.0, "lat": 41.2163, "altitude": 300.0, "temp": 8.2, "dist": 0.5318041498439079, "lon": 0.79748, "pcp": 0.0, "tw": 8.199, "name": "Torroja del Priorat", "td": 8.2}, {"id": "CI", "hr": 95.0, "lat": 42.25839, "altitude": 852.0, "temp": 12.6, "dist": 0.8446059917330453, "lon": 2.36429, "pcp": 0.0, "tw": 12.599, "name": "Sant Pau de Seg\u00faries", "td": 11.798512777446378}, {"id": "MR", "hr": 98.0, "lat": 41.25079, "altitude": 500.0, "temp": 16.0, "dist": 0.5244394172045687, "lon": 0.9106, "pcp": 0.0, "tw": 15.999, "name": "Pant\u00e0 de Siurana", "td": 15.672377436120577}, {"id": "UG", "hr": 96.0, "lat": 41.29928, "altitude": 3.0, "temp": 16.0, "dist": 0.07651833529139696, "lon": 2.03787, "pcp": 0.0, "tw": 15.999, "name": "Viladecans", "td": 15.343899488964608}, {"id": "XM", "hr": 95.0, "lat": 41.59522, "altitude": 235.0, "temp": 1.8, "dist": 0.8608208649661313, "lon": 0.73507, "pcp": 0.0, "tw": 1.7990000000000002, "name": "els Alam\u00fas", "td": 1.060257194662454}, {"id": "X3", "hr": 95.0, "lat": 41.74281, "altitude": 370.0, "temp": 3.2, "dist": 0.927092804840811, "lon": 0.5358, "pcp": 0.0, "tw": 3.1990000000000003, "name": "Alguaire", "td": 2.452253903195073}, {"id": "XY", "hr": 99.0, "lat": 41.56509, "altitude": 122.0, "temp": 3.1, "dist": 0.8743638494400477, "lon": 0.55027, "pcp": 0.0, "tw": 3.099, "name": "Alcarr\u00e0s", "td": 2.9509499645831063}, {"id": "WZ", "hr": 96.0, "lat": 41.20187, "altitude": 17.0, "temp": 17.0, "dist": 0.003839811531863302, "lon": 1.63346, "pcp": 0.0, "tw": 16.999, "name": "Cunit", "td": 16.339330294869825}, {"id": "X6", "hr": 99.0, "lat": 41.92173, "altitude": 366.0, "temp": 6.4, "dist": 0.9346632207999067, "lon": 1.02901, "pcp": 0.0, "tw": 6.399, "name": "Baldomar", "td": 6.247187519857285}, {"id": "DJ", "hr": 98.0, "lat": 42.11653, "altitude": 176.0, "temp": 13.4, "dist": 0.5637488295270441, "lon": 2.78969, "pcp": 0.0, "tw": 13.399000000000001, "name": "Banyoles", "td": 13.07830839549125}, {"id": "U7", "hr": 94.0, "lat": 40.85936, "altitude": 52.0, "temp": 9.1, "dist": 0.409958855320777, "lon": 0.50525, "pcp": 0.0, "tw": 9.099, "name": "Aldover", "td": 8.161116385711633}, {"id": "C8", "hr": 100.0, "lat": 41.67555, "altitude": 554.0, "temp": 11.2, "dist": 0.8253810714888573, "lon": 1.29609, "pcp": 0.0, "tw": 11.199, "name": "Cervera", "td": 11.2}, {"id": "CR", "hr": 98.0, "lat": 42.08032, "altitude": 873.0, "temp": 11.7, "dist": 0.8879654762829066, "lon": 1.9624, "pcp": 0.0, "tw": 11.699, "name": "la Quar", "td": 11.382186308148572}, {"id": "XQ", "hr": 98.0, "lat": 42.16252, "altitude": 473.0, "temp": 8.4, "dist": 0.9725390775966671, "lon": 0.88814, "pcp": 0.0, "tw": 8.399000000000001, "name": "Tremp", "td": 8.089713970927221}, {"id": "UO", "hr": 100.0, "lat": 41.91461, "altitude": 97.0, "temp": 14.9, "dist": 0.5028896415902817, "lon": 2.82069, "pcp": 0.0, "tw": 14.899000000000001, "name": "Fornells de la Selva", "td": 14.9}, {"id": "VV", "hr": 100.0, "lat": 41.68129, "altitude": 528.0, "temp": 13.3, "dist": 0.6139000297271556, "lon": 2.02647, "pcp": 0.0, "tw": 13.299000000000001, "name": "Sant Lloren\u00e7 Savall", "td": 13.3}, {"id": "DO", "hr": 100.0, "lat": 41.80857, "altitude": 14.0, "temp": 14.4, "dist": 0.08488753290071493, "lon": 3.03241, "pcp": 0.0, "tw": 14.399000000000001, "name": "Castell d'Aro", "td": 14.4}, {"id": "V3", "hr": 98.0, "lat": 41.95224, "altitude": 509.0, "temp": 11.1, "dist": 0.7784676619283515, "lon": 2.23271, "pcp": 0.0, "tw": 11.099, "name": "Gurb", "td": 10.78355497900982}, {"id": "CJ", "hr": 91.0, "lat": 42.21624, "altitude": 566.5, "temp": 11.5, "dist": 0.9676830982288592, "lon": 1.33132, "pcp": 0.0, "tw": 11.499, "name": "Organy\u00e0", "td": 10.059983229567855}, {"id": "Y5", "hr": 97.0, "lat": 42.22793, "altitude": 152.0, "temp": 13.4, "dist": 0.46403483008818125, "lon": 2.86295, "pcp": 0.0, "tw": 13.399000000000001, "name": "Navata", "td": 12.917200834782971}, {"id": "VO", "hr": 59.0, "lat": 42.08745, "altitude": 785.0, "temp": 13.6, "dist": 0.9480436159735339, "lon": 1.42792, "pcp": 0.0, "tw": 13.599, "name": "Lladurs", "td": 5.794110828745486}, {"id": "WL", "hr": 100.0, "lat": 41.57236, "altitude": 413.0, "temp": 3.0, "dist": 0.7920214881114012, "lon": 1.0882, "pcp": 0.0, "tw": 2.999, "name": "Sant Mart\u00ed de Riucorb", "td": 3.0}, {"id": "VN", "hr": 100.0, "lat": 41.88244, "altitude": 117.0, "temp": 14.4, "dist": 0.4860433782780399, "lon": 2.74262, "pcp": 0.0, "tw": 14.399000000000001, "name": "Vilob\u00ed d'Onyar", "td": 14.4}, {"id": "DL", "hr": 100.0, "lat": 40.70719, "altitude": 0.5, "temp": 14.4, "dist": 0.0768241393266228, "lon": 0.83449, "pcp": 0.0, "tw": 14.399000000000001, "name": "Illa de Buda", "td": 14.4}, {"id": "WO", "hr": 100.0, "lat": 41.27151, "altitude": 185.0, "temp": 15.3, "dist": 0.28410514016019994, "lon": 1.46717, "pcp": 0.0, "tw": 15.299000000000001, "name": "la Bisbal del Pened\u00e8s", "td": 15.3}, {"id": "CD", "hr": 80.0, "lat": 42.37083, "altitude": 849.0, "temp": 12.1, "dist": 0.9746951118494185, "lon": 1.43277, "pcp": 0.0, "tw": 12.099, "name": "la Seu d'Urgell - Bellestar", "td": 8.775979690599613}, {"id": "C7", "hr": 100.0, "lat": 41.66695, "altitude": 427.0, "temp": 3.2, "dist": 0.8391155992642414, "lon": 1.16234, "pcp": 0.1, "tw": 3.1990000000000003, "name": "T\u00e0rrega", "td": 3.2}, {"id": "DG", "hr": 66.0, "lat": 42.39848, "altitude": 1971.4, "temp": 8.1, "dist": 0.9133773215909835, "lon": 2.15517, "pcp": 0.0, "tw": 8.099, "name": "N\u00faria (1.971 m)", "td": 2.182174437446235}, {"id": "H1", "hr": 98.0, "lat": 41.58642, "altitude": 333.0, "temp": 14.2, "dist": 0.7095670449304383, "lon": 1.65306, "pcp": 0.0, "tw": 14.199, "name": "\u00d2dena", "td": 13.876483489321537}, {"id": "ZC", "hr": 38.0, "lat": 42.42117, "altitude": 2410.0, "temp": 3.1, "dist": 0.8936656575224158, "lon": 2.24565, "pcp": 0.0, "tw": 3.099, "name": "Ulldeter (2.410 m)", "td": -9.981965462928004}, {"id": "Y6", "hr": 100.0, "lat": 41.04343, "altitude": 317.0, "temp": 3.9, "dist": 0.3668953387125451, "lon": 0.74032, "pcp": 0.0, "tw": 3.899, "name": "Tivissa", "td": 3.9}, {"id": "UE", "hr": 96.0, "lat": 42.02306, "altitude": 4.0, "temp": 13.1, "dist": 0.03298947409332387, "lon": 3.15719, "pcp": 0.0, "tw": 13.099, "name": "Torroella de Montgr\u00ed", "td": 12.457149874382706}, {"id": "D4", "hr": 95.0, "lat": 42.27065, "altitude": 24.0, "temp": 14.3, "dist": 0.04308019798319751, "lon": 3.18165, "pcp": 0.0, "tw": 14.299000000000001, "name": "Roses", "td": 13.488792746490251}, {"id": "Y9", "hr": 88.0, "lat": 41.31723, "altitude": 4.0, "temp": 15.5, "dist": 0.009022549928338952, "lon": 2.13091, "pcp": 0.0, "tw": 15.499, "name": "Port de Barcelona - ZAL Prat", "td": 13.511289824482118}, {"id": "CL", "hr": 100.0, "lat": 41.67399, "altitude": 349.0, "temp": 12.7, "dist": 0.7610740090232082, "lon": 1.76796, "pcp": 0.0, "tw": 12.699, "name": "Sant Salvador de Guardiola", "td": 12.7}, {"id": "V8", "hr": 98.0, "lat": 41.67279, "altitude": 223.0, "temp": 2.1, "dist": 0.87464704920838, "lon": 0.87741, "pcp": 0.0, "tw": 2.099, "name": "el Poal", "td": 1.8040847820091874}, {"id": "DK", "hr": 95.0, "lat": 41.14677, "altitude": 2.0, "temp": 16.6, "dist": 0.023309898125428608, "lon": 1.41846, "pcp": 0.0, "tw": 16.599, "name": "Torredembarra", "td": 15.775641676589562}, {"id": "W8", "hr": 96.0, "lat": 41.44237, "altitude": 438.0, "temp": 14.7, "dist": 0.6679091633973768, "lon": 1.15998, "pcp": 0.0, "tw": 14.699, "name": "Blancafort", "td": 14.049839367832167}, {"id": "D6", "hr": 86.0, "lat": 42.43515, "altitude": 196.0, "temp": 11.4, "dist": 0.0006811608546698489, "lon": 3.16622, "pcp": 0.0, "tw": 11.399000000000001, "name": "Portbou", "td": 9.13394284130029}, {"id": "X7", "hr": 100.0, "lat": 41.51909, "altitude": 215.0, "temp": 2.3, "dist": 0.8562039114643637, "lon": 0.55314, "pcp": 0.0, "tw": 2.299, "name": "Torres de Segre", "td": 2.3}, {"id": "WS", "hr": 73.0, "lat": 41.84008, "altitude": 953.0, "temp": 12.6, "dist": 0.6196620802298802, "lon": 2.41877, "pcp": 0.0, "tw": 12.599, "name": "Viladrau", "td": 7.942412277709882}, {"id": "XK", "hr": 46.0, "lat": 41.77362, "altitude": 1668.0, "temp": 8.3, "dist": 0.5263601600502666, "lon": 2.43774, "pcp": 0.0, "tw": 8.299000000000001, "name": "Puig Sesolles (1.668 m)", "td": -2.7069022722510114}, {"id": "WG", "hr": 100.0, "lat": 41.80104, "altitude": 301.0, "temp": 4.4, "dist": 0.9320303123357265, "lon": 0.64804, "pcp": 0.0, "tw": 4.399, "name": "Algerri", "td": 4.4}, {"id": "X5", "hr": 96.0, "lat": 40.79705, "altitude": 1055.0, "temp": 9.1, "dist": 0.602916931829026, "lon": 0.31822, "pcp": 0.0, "tw": 9.099, "name": "PN dels Ports", "td": 8.475425595766408}, {"id": "WV", "hr": 100.0, "lat": 42.23414, "altitude": 788.0, "temp": 12.5, "dist": 0.9357049804430758, "lon": 1.87485, "pcp": 0.0, "tw": 12.499, "name": "Guardiola de Bergued\u00e0", "td": 12.5}, {"id": "WT", "hr": 100.0, "lat": 41.64707, "altitude": 2.0, "temp": 15.0, "dist": 0.017529889053857328, "lon": 2.75658, "pcp": 0.0, "tw": 14.999, "name": "Malgrat de Mar", "td": 15.0}, {"id": "VS", "hr": 58.0, "lat": 42.63835, "altitude": 2247.0, "temp": 3.0, "dist": 0.994456531211454, "lon": 0.77889, "pcp": 0.0, "tw": 2.999, "name": "Lac Redon (2.247 m)", "td": -4.441769253628091}, {"id": "UP", "hr": 99.0, "lat": 41.51773, "altitude": 81.0, "temp": 15.3, "dist": 0.049447545942527205, "lon": 2.37702, "pcp": 0.0, "tw": 15.299000000000001, "name": "Cabrils", "td": 15.137040279618443}, {"id": "DI", "hr": 95.0, "lat": 41.43292, "altitude": 415.0, "temp": 13.8, "dist": 0.5309866868620506, "lon": 1.62386, "pcp": 0.0, "tw": 13.799000000000001, "name": "Font-rub\u00ed", "td": 12.991651607733916}, {"id": "D8", "hr": 100.0, "lat": 40.95134, "altitude": 515.0, "temp": 3.7, "dist": 0.6716192565374484, "lon": 0.30565, "pcp": 0.0, "tw": 3.6990000000000003, "name": "Horta de Sant Joan", "td": 3.7}, {"id": "XP", "hr": 100.0, "lat": 41.06581, "altitude": 349.0, "temp": 5.2, "dist": 0.6646036215831335, "lon": 0.43006, "pcp": 0.0, "tw": 5.199, "name": "Gandesa", "td": 5.2}, {"id": "XX", "hr": 100.0, "lat": 41.68835, "altitude": 291.0, "temp": 2.0, "dist": 0.8606856597699867, "lon": 1.04476, "pcp": 0.0, "tw": 1.999, "name": "Tornabous", "td": 2.0}, {"id": "U4", "hr": 94.0, "lat": 41.83094, "altitude": 507.0, "temp": 12.9, "dist": 0.8023430224244857, "lon": 1.84699, "pcp": 0.0, "tw": 12.899000000000001, "name": "Castellnou de Bages", "td": 11.935009916330307}, {"id": "UH", "hr": 92.0, "lat": 41.34171, "altitude": 545.0, "temp": 15.1, "dist": 0.4193831652229194, "lon": 1.48769, "pcp": 0.0, "tw": 15.099, "name": "el Montmell", "td": 13.789229773001109}, {"id": "CY", "hr": 99.0, "lat": 41.87813, "altitude": 816.0, "temp": 13.4, "dist": 0.7397365453973226, "lon": 2.17873, "pcp": 0.0, "tw": 13.399000000000001, "name": "Muntanyola", "td": 13.239206549436407}, {"id": "CG", "hr": 79.0, "lat": 42.37717, "altitude": 1405.0, "temp": 12.1, "dist": 0.8362274452293827, "lon": 2.41456, "pcp": 0.0, "tw": 12.099, "name": "Moll\u00f3 - Fabert", "td": 8.594911321997488}, {"id": "D7", "hr": 100.0, "lat": 41.18499, "altitude": 53.0, "temp": 5.6, "dist": 0.6488086611099584, "lon": 0.59376, "pcp": 0.0, "tw": 5.598999999999999, "name": "Vinebre", "td": 5.6}, {"id": "XO", "hr": 100.0, "lat": 41.93497, "altitude": 499.0, "temp": 11.1, "dist": 0.7649011048044954, "lon": 2.23987, "pcp": 0.0, "tw": 11.099, "name": "Vic", "td": 11.1}, {"id": "X8", "hr": 91.0, "lat": 41.37919, "altitude": 79.0, "temp": 16.0, "dist": 0.16396694481982743, "lon": 2.1054, "pcp": 0.0, "tw": 15.999, "name": "Barcelona - Zona Universit\u00e0ria", "td": 14.513348866487448}, {"id": "Y4", "hr": 39.0, "lat": 42.17426, "altitude": 1162.0, "temp": 12.5, "dist": 0.9579088090576141, "lon": 1.42775, "pcp": 0.0, "tw": 12.499, "name": "Aliny\u00e0", "td": -1.1940532127575316}, {"id": "DB", "hr": 99.0, "lat": 40.87287, "altitude": 179.0, "temp": 6.2, "dist": 0.11832351260998775, "lon": 0.71581, "pcp": 0.0, "tw": 6.199, "name": "el Perell\u00f3", "td": 6.047415547041553}, {"id": "CC", "hr": 94.0, "lat": 42.07398, "altitude": 626.0, "temp": 13.6, "dist": 0.8499675112750937, "lon": 2.20862, "pcp": 0.0, "tw": 13.599, "name": "Or\u00eds", "td": 12.630200571510096}, {"id": "Z2", "hr": 32.0, "lat": 42.46602, "altitude": 2535.0, "temp": 2.7, "dist": 0.9896414579299353, "lon": 0.88405, "pcp": 0.0, "tw": 2.6990000000000003, "name": "Bo\u00ed (2.535 m)", "td": -12.501868912882943}, {"id": "UC", "hr": 100.0, "lat": 41.97726, "altitude": 60.0, "temp": 13.5, "dist": 0.3673065340708863, "lon": 2.99705, "pcp": 0.0, "tw": 13.499, "name": "Monells", "td": 13.5}, {"id": "MS", "hr": 100.0, "lat": 42.25978, "altitude": 938.0, "temp": 9.6, "dist": 0.9332387680922425, "lon": 1.97747, "pcp": 0.0, "tw": 9.599, "name": "Castellar de n'Hug - el Clot del Moro", "td": 9.6}, {"id": "Z7", "hr": 34.0, "lat": 42.53412, "altitude": 2519.0, "temp": 2.4, "dist": 0.9905258254096303, "lon": 1.05476, "pcp": 0.0, "tw": 2.399, "name": "Espot (2.519 m)", "td": -12.015024258683184}, {"id": "WB", "hr": 99.0, "lat": 41.76036, "altitude": 267.0, "temp": 2.9, "dist": 0.9213133371056459, "lon": 0.67022, "pcp": 0.0, "tw": 2.899, "name": "Albesa", "td": 2.7511779912759593}, {"id": "XT", "hr": 88.0, "lat": 41.98766, "altitude": 691.0, "temp": 15.7, "dist": 0.9240067194373042, "lon": 1.51165, "pcp": 0.0, "tw": 15.699, "name": "Solsona", "td": 13.708504415287063}, {"id": "CQ", "hr": 93.0, "lat": 41.99546, "altitude": 594.0, "temp": 12.4, "dist": 0.9486328049742749, "lon": 1.02569, "pcp": 0.0, "tw": 12.399000000000001, "name": "Vilanova de Mei\u00e0", "td": 11.276610786355194}, {"id": "CU", "hr": 55.0, "lat": 42.69856, "altitude": 1002.0, "temp": 14.6, "dist": 0.9953635510195544, "lon": 0.79397, "pcp": 0.0, "tw": 14.599, "name": "Vielha", "td": 5.697592064589086}, {"id": "WA", "hr": 100.0, "lat": 41.87694, "altitude": 443.0, "temp": 9.0, "dist": 0.9177160563212081, "lon": 1.1541, "pcp": 0.0, "tw": 8.999, "name": "Oliola", "td": 9.0}, {"id": "UA", "hr": 97.0, "lat": 40.9091, "altitude": 93.0, "temp": 9.6, "dist": 0.09949535402165377, "lon": 0.76943, "pcp": 0.0, "tw": 9.599, "name": "l'Ametlla de Mar", "td": 9.13021118234886}, {"id": "CT", "hr": 95.0, "lat": 42.39811, "altitude": 823.0, "temp": 11.7, "dist": 0.9883362774104333, "lon": 0.74362, "pcp": 0.0, "tw": 11.699, "name": "el Pont de Suert", "td": 10.903658564821468}, {"id": "VQ", "hr": 100.0, "lat": 41.1713, "altitude": 112.0, "temp": 15.9, "dist": 0.22475845223999547, "lon": 1.16774, "pcp": 0.0, "tw": 15.899000000000001, "name": "Constant\u00ed", "td": 15.9}, {"id": "UF", "hr": 99.0, "lat": 41.28832, "altitude": 573.0, "temp": 12.8, "dist": 0.11365053318494134, "lon": 1.90775, "pcp": 0.0, "tw": 12.799000000000001, "name": "PN del Garraf - el Rascler", "td": 12.639890634069477}, {"id": "VU", "hr": 96.0, "lat": 41.63286, "altitude": 421.0, "temp": 14.1, "dist": 0.648907256085002, "lon": 1.91718, "pcp": 0.0, "tw": 14.099, "name": "Rellinars", "td": 13.452580822452491}, {"id": "XL", "hr": 93.0, "lat": 41.34045, "altitude": 8.0, "temp": 16.8, "dist": 0.1459236776074656, "lon": 2.08022, "pcp": 0.0, "tw": 16.799, "name": "el Prat de Llobregat", "td": 15.641284175094135}, {"id": "WD", "hr": 100.0, "lat": 41.08671, "altitude": 382.0, "temp": 3.3, "dist": 0.7404782953773108, "lon": 0.31884, "pcp": 0.0, "tw": 3.299, "name": "Batea", "td": 3.3}, {"id": "WQ", "hr": 42.0, "lat": 42.0513, "altitude": 1572.0, "temp": 8.7, "dist": 0.966052506008831, "lon": 0.72952, "pcp": 0.0, "tw": 8.699, "name": "Montsec d'Ares (1.572 m)", "td": -3.5993816388952515}, {"id": "XW", "hr": 99.0, "lat": 41.59822, "altitude": 165.0, "temp": 2.6, "dist": 0.8731097644579824, "lon": 0.64855, "pcp": 0.0, "tw": 2.599, "name": "Lleida - la Bordeta", "td": 2.451520031259671}, {"id": "XV", "hr": 97.0, "lat": 41.48311, "altitude": 158.0, "temp": 16.0, "dist": 0.34892031185231953, "lon": 2.07956, "pcp": 0.0, "tw": 15.999, "name": "Sant Cugat del Vall\u00e8s - CAR", "td": 15.508298846906944}, {"id": "WC", "hr": 99.0, "lat": 41.63642, "altitude": 261.0, "temp": 1.8, "dist": 0.8532223181627243, "lon": 0.92446, "pcp": 0.0, "tw": 1.7990000000000002, "name": "Golm\u00e9s", "td": 1.6524321375572995}, {"id": "UL", "hr": 99.0, "lat": 41.52911, "altitude": 228.0, "temp": 2.3, "dist": 0.8264568203002831, "lon": 0.75303, "pcp": 0.0, "tw": 2.299, "name": "Castelldans", "td": 2.151862071176751}, {"id": "VC", "hr": 96.0, "lat": 41.24415, "altitude": 69.0, "temp": 4.9, "dist": 0.7725253477246435, "lon": 0.43266, "pcp": 0.0, "tw": 4.899, "name": "Pant\u00e0 de Riba-roja", "td": 4.294614272702169}, {"id": "V1", "hr": 97.0, "lat": 41.78487, "altitude": 238.0, "temp": 2.8, "dist": 0.9151454237614988, "lon": 0.82939, "pcp": 0.0, "tw": 2.799, "name": "Vallfogona de Balaguer", "td": 2.3534921245043017}, {"id": "VE", "hr": 98.0, "lat": 41.48692, "altitude": 97.0, "temp": 3.4, "dist": 0.8630634392807172, "lon": 0.46058, "pcp": 0.0, "tw": 3.399, "name": "Aitona", "td": 3.1011193959057493}, {"id": "Z9", "hr": 30.0, "lat": 42.29265, "altitude": 2143.0, "temp": 4.0, "dist": 0.9547886313494557, "lon": 1.71498, "pcp": 0.0, "tw": 3.999, "name": "Cad\u00ed Nord (2.143 m) - Prat d'Aguil\u00f3", "td": -12.156685922099923}, {"id": "UB", "hr": 98.0, "lat": 42.05398, "altitude": 15.0, "temp": 13.5, "dist": 0.2508741512319904, "lon": 3.06195, "pcp": 0.0, "tw": 13.499, "name": "la Tallada d'Empord\u00e0", "td": 13.178080282433731}, {"id": "W4", "hr": 100.0, "lat": 41.36619, "altitude": 240.0, "temp": 15.2, "dist": 0.38049042762768936, "lon": 1.72857, "pcp": 0.0, "tw": 15.199, "name": "la Granada", "td": 15.2}, {"id": "YB", "hr": 99.0, "lat": 42.18813, "altitude": 433.0, "temp": 12.5, "dist": 0.7975826027416575, "lon": 2.47097, "pcp": 0.0, "tw": 12.499, "name": "Olot", "td": 12.340232676283202}, {"id": "D2", "hr": 100.0, "lat": 41.59252, "altitude": 343.0, "temp": 14.0, "dist": 0.6228263827625623, "lon": 1.915, "pcp": 0.0, "tw": 13.999, "name": "Vacarisses", "td": 14.0}, {"id": "ZD", "hr": 41.0, "lat": 42.32211, "altitude": 2478.0, "temp": 2.8, "lon": 1.89716, "dist": 0.9492746558966121, "tw": 2.799, "name": "la Tosa d'Alp 2500", "td": -9.267995321294208}, {"id": "UQ", "hr": 91.0, "lat": 41.61991, "altitude": 460.0, "temp": 11.7, "dist": 0.2441938069701698, "lon": 2.44532, "pcp": 0.0, "tw": 11.699, "name": "Dosrius - PN Montnegre Corredor", "td": 10.25791083003876}, {"id": "CP", "hr": 88.0, "lat": 42.13924, "altitude": 690.0, "temp": 12.0, "dist": 0.9671524703165492, "lon": 1.03893, "pcp": 0.0, "tw": 11.999, "name": "Sant Rom\u00e0 d'Abella", "td": 10.060025930045267}, {"id": "J5", "hr": 96.0, "lat": 42.34215, "altitude": 158.0, "temp": 13.7, "dist": 0.552620955874723, "lon": 2.83423, "pcp": 0.0, "tw": 13.699, "name": "Pant\u00e0 de Darnius - Boadella", "td": 13.054408449084859}, {"id": "VM", "hr": 93.0, "lat": 41.7145, "altitude": 222.0, "temp": 3.1, "dist": 0.9129643596477638, "lon": 0.62839, "pcp": 0.0, "tw": 3.099, "name": "Vilanova de Segri\u00e0", "td": 2.0512618520055934}, {"id": "D9", "hr": 99.0, "lat": 41.21553, "altitude": 59.0, "temp": 17.4, "dist": 0.10898237850914894, "lon": 1.52121, "pcp": 0.0, "tw": 17.398999999999997, "name": "el Vendrell", "td": 17.234645978178765}, {"id": "XD", "hr": 93.0, "lat": 41.32, "altitude": 687.0, "temp": 14.2, "dist": 0.6247898181065019, "lon": 0.8857, "pcp": 0.0, "tw": 14.199, "name": "Ulldemolins", "td": 13.062159604660929}, {"id": "WY", "hr": 100.0, "lat": 41.43386, "altitude": 164.0, "temp": 15.2, "dist": 0.4825571858913281, "lon": 1.79429, "pcp": 0.0, "tw": 15.199, "name": "Sant Sadurn\u00ed d'Anoia", "td": 15.2}, {"id": "Z6", "hr": 35.0, "lat": 42.77011, "altitude": 2228.0, "temp": 5.5, "dist": 0.996479476092947, "lon": 0.73198, "pcp": 0.0, "tw": 5.499, "name": "Sasseuva (2.228 m)", "td": -8.897136262271509}, {"id": "DF", "hr": 99.0, "lat": 41.97751, "altitude": 28.6, "temp": 14.5, "dist": 0.30852346939330466, "lon": 3.03543, "pcp": 0.0, "tw": 14.499, "name": "la Bisbal d'Empord\u00e0", "td": 14.337952393562446}, {"id": "VK", "hr": 98.0, "lat": 41.68328, "altitude": 286.0, "temp": 3.1, "dist": 0.921337516333179, "lon": 0.4487, "pcp": 0.0, "tw": 3.099, "name": "Raimat", "td": 2.8018037166648533}, {"id": "VZ", "hr": 95.0, "lat": 42.38443, "altitude": 83.0, "temp": 13.9, "dist": 0.30218817303617285, "lon": 3.00736, "pcp": 0.0, "tw": 13.899000000000001, "name": "Espolla", "td": 13.091079837394712}, {"id": "XR", "hr": 94.0, "lat": 41.31481, "altitude": 928.0, "temp": 13.4, "dist": 0.5820149497748214, "lon": 0.98161, "pcp": 0.0, "tw": 13.399000000000001, "name": "Prades", "td": 12.431574678263768}, {"id": "X1", "hr": 100.0, "lat": 41.15374, "altitude": 359.0, "temp": 7.9, "dist": 0.42767046488808713, "lon": 0.81953, "pcp": 0.0, "tw": 7.899, "name": "Falset", "td": 7.9}, {"id": "DQ", "hr": 96.0, "lat": 41.30728, "altitude": 287.0, "temp": 15.9, "dist": 0.4298205294688837, "lon": 1.36259, "pcp": 0.0, "tw": 15.899000000000001, "name": "Vila-rodona", "td": 15.244356405668805}, {"id": "WK", "hr": 100.0, "lat": 41.81949, "altitude": 268.0, "temp": 4.7, "dist": 0.9399778350312069, "lon": 0.57768, "pcp": 0.0, "tw": 4.699, "name": "Alfarr\u00e0s", "td": 4.7}, {"id": "VP", "hr": 99.0, "lat": 41.80483, "altitude": 659.0, "temp": 14.5, "dist": 0.8661700185802657, "lon": 1.53853, "pcp": 0.0, "tw": 14.499, "name": "Pin\u00f3s", "td": 14.337952393562446}, {"id": "VH", "hr": 99.0, "lat": 41.65814, "altitude": 259.0, "temp": 3.1, "dist": 0.9216534116345767, "lon": 0.39301, "pcp": 0.0, "tw": 3.099, "name": "Gimenells", "td": 2.9509499645831063}, {"id": "V5", "hr": 100.0, "lat": 42.03947, "altitude": 774.0, "temp": 11.6, "dist": 0.8492692666035204, "lon": 2.11993, "pcp": 0.0, "tw": 11.599, "name": "Perafita", "td": 11.6}, {"id": "XA", "hr": 100.0, "lat": 41.60257, "altitude": 785.0, "temp": 13.9, "dist": 0.7629755589280646, "lon": 1.4007, "pcp": 0.0, "tw": 13.899000000000001, "name": "la Panadella", "td": 13.9}, {"id": "US", "hr": 93.0, "lat": 40.55786, "altitude": 24.0, "temp": 14.1, "dist": 0.02082696284542107, "lon": 0.52329, "pcp": 0.0, "tw": 14.099, "name": "Alcanar", "td": 12.962962470331327}, {"id": "KP", "hr": 100.0, "lat": 41.73894, "altitude": 36.0, "temp": 15.1, "dist": 0.29741289052052955, "lon": 2.69436, "pcp": 0.0, "tw": 15.099, "name": "Fogars de la Selva", "td": 15.1}, {"id": "DP", "hr": 93.0, "lat": 42.38605, "altitude": 1097.0, "temp": 10.4, "dist": 0.9565523584990108, "lon": 1.8664, "pcp": 0.0, "tw": 10.399000000000001, "name": "Das - Aer\u00f2drom", "td": 9.292666663822475}, {"id": "WI", "hr": 100.0, "lat": 41.35741, "altitude": 350.0, "temp": 1.9, "dist": 0.8059729313658868, "lon": 0.4809, "pcp": 0.0, "tw": 1.899, "name": "Maials", "td": 1.9}, {"id": "YA", "hr": 63.0, "lat": 42.44013, "altitude": 1213.0, "temp": 11.1, "dist": 0.9505584712880395, "lon": 1.93482, "pcp": 0.0, "tw": 11.099, "name": "Puigcerd\u00e0", "td": 4.38072097348109}, {"id": "R1", "hr": 100.0, "lat": 41.70637, "altitude": 210.0, "temp": 14.4, "dist": 0.7226110386399378, "lon": 1.87276, "pcp": 0.0, "tw": 14.399000000000001, "name": "el Pont de Vilomara", "td": 14.4}, {"id": "Z8", "hr": 37.0, "lat": 42.18254, "altitude": 2316.0, "temp": 3.0, "dist": 0.9520112246769264, "lon": 1.52407, "pcp": 0.0, "tw": 2.999, "name": "el Port del Comte (2.316 m)", "td": -10.413444077717681}, {"id": "D1", "hr": 98.0, "lat": 41.28521, "altitude": 404.0, "temp": 5.5, "dist": 0.6363968059274836, "lon": 0.75383, "pcp": 0.0, "tw": 5.499, "name": "Margalef", "td": 5.196329135608467}, {"id": "VA", "hr": 100.0, "lat": 41.19645, "altitude": 257.0, "temp": 3.5, "dist": 0.7067120278712915, "lon": 0.51161, "pcp": 0.0, "tw": 3.499, "name": "Asc\u00f3", "td": 3.5}, {"id": "UJ", "hr": 96.0, "lat": 41.52879, "altitude": 709.0, "temp": 14.0, "dist": 0.7059894345167852, "lon": 1.3683, "pcp": 0.0, "tw": 13.999, "name": "Santa Coloma de Queralt", "td": 13.353037729843713}, {"id": "D5", "hr": 100.0, "lat": 41.41864, "altitude": 411.0, "temp": 14.6, "dist": 0.1941513105038124, "lon": 2.12379, "pcp": 0.0, "tw": 14.599, "name": "Barcelona - Observatori Fabra", "td": 14.6}, {"id": "U6", "hr": 97.0, "lat": 41.08017, "altitude": 29.0, "temp": 16.5, "dist": 0.06575656455908097, "lon": 1.06661, "pcp": 0.0, "tw": 16.499, "name": "Vinyols i els Arcs", "td": 16.006586910122802}, {"id": "U9", "hr": 97.0, "lat": 40.76947, "altitude": 62.0, "temp": 14.4, "dist": 0.21112537871937997, "lon": 0.61635, "pcp": 0.0, "tw": 14.399000000000001, "name": "l'Aldea", "td": 13.913777009817201}, {"id": "XN", "hr": 99.0, "lat": 41.46379, "altitude": 89.0, "temp": 3.5, "dist": 0.8625511435778032, "lon": 0.42765, "pcp": 0.0, "tw": 3.499, "name": "Ser\u00f2s", "td": 3.3504939111084187}, {"id": "W6", "hr": 99.0, "lat": 41.13738, "altitude": 158.0, "temp": 15.9, "dist": 0.2518987768715293, "lon": 1.0187, "pcp": 0.0, "tw": 15.899000000000001, "name": "Riudoms", "td": 15.736356193838574}, {"id": "CW", "hr": 96.0, "lat": 41.39241, "altitude": 446.0, "temp": 13.9, "dist": 0.6340832742226434, "lon": 1.09894, "pcp": 0.0, "tw": 13.899000000000001, "name": "l'Espluga de Francol\u00ed", "td": 13.253494636746092}, {"id": "XH", "hr": 97.0, "lat": 42.40533, "altitude": 679.0, "temp": 11.1, "dist": 0.9849680405738123, "lon": 1.12993, "pcp": 0.0, "tw": 11.099, "name": "Sort", "td": 10.625075554158142}, {"id": "U2", "hr": 99.0, "lat": 42.17716, "altitude": 4.0, "temp": 14.6, "dist": 0.05323168765884623, "lon": 3.0968, "pcp": 0.0, "tw": 14.599, "name": "Sant Pere Pescador", "td": 14.437838379346237}, {"id": "UX", "hr": 97.0, "lat": 40.62652, "altitude": 210.0, "temp": 13.2, "dist": 0.3739289095080788, "lon": 0.37112, "pcp": 0.0, "tw": 13.199, "name": "Ulldecona - els Valentins", "td": 12.717885597303594}, {"id": "W1", "hr": 91.0, "lat": 42.24726, "altitude": 2.0, "temp": 14.6, "dist": 0.09968892076154334, "lon": 3.09021, "pcp": 0.0, "tw": 14.599, "name": "Castell\u00f3 d'Emp\u00faries", "td": 13.127858543406989}, {"id": "UY", "hr": 97.0, "lat": 41.87912, "altitude": 576.0, "temp": 9.9, "dist": 0.9405597564496757, "lon": 0.76103, "pcp": 0.0, "tw": 9.899000000000001, "name": "Os de Balaguer - el Monestir d'Avellanes", "td": 9.429184060384836}, {"id": "U3", "hr": 90.0, "lat": 41.37491, "altitude": 257.0, "temp": 15.0, "dist": 0.4319700812459195, "lon": 1.63032, "pcp": 0.0, "tw": 14.999, "name": "Sant Mart\u00ed Sarroca", "td": 13.356322404874824}, {"id": "C6", "hr": 99.0, "lat": 41.6566, "altitude": 264.0, "temp": 2.0, "dist": 0.8587308027349195, "lon": 0.95172, "pcp": 0.0, "tw": 1.999, "name": "Castellnou de Seana", "td": 1.852204111027256}, {"id": "VX", "hr": 100.0, "lat": 41.74761, "altitude": 1030.0, "temp": 12.3, "dist": 0.5591164712449934, "lon": 2.30291, "pcp": 0.0, "tw": 12.299000000000001, "name": "Tagamanent - PN del Montseny", "td": 12.3}, {"id": "Z5", "hr": 29.0, "lat": 42.70029, "altitude": 2400.0, "temp": 4.5, "dist": 0.9901048698418484, "lon": 1.27201, "pcp": 0.0, "tw": 4.499, "name": "Certascan (2.400 m)", "td": -12.13703727186868}, {"id": "UN", "hr": 100.0, "lat": 41.87449, "altitude": 171.0, "temp": 13.2, "dist": 0.3467849038227675, "lon": 2.92694, "pcp": 0.0, "tw": 13.199, "name": "Cass\u00e0 de la Selva", "td": 13.2}, {"id": "Z3", "hr": 31.0, "lat": 42.46605, "altitude": 2230.0, "temp": 6.5, "dist": 0.9663082162796759, "lon": 1.7785, "pcp": 0.0, "tw": 6.499, "name": "Malniu (2.230 m)", "td": -9.56151346305623}, {"id": "V4", "hr": 88.0, "lat": 42.11477, "altitude": 684.0, "temp": 14.3, "dist": 0.8662354684876057, "lon": 2.21483, "pcp": 0.0, "tw": 14.299000000000001, "name": "Montesquiu", "td": 12.32800116747896}, {"id": "UW", "hr": 90.0, "lat": 40.62725, "altitude": 0.0, "temp": 12.6, "dist": 0.006251794281302625, "lon": 0.65922, "pcp": 0.0, "tw": 12.599, "name": "els Alfacs", "td": 10.984022219570859}, {"id": "VB", "hr": 96.0, "lat": 41.06289, "altitude": 32.0, "temp": 5.8, "dist": 0.5026759831049024, "lon": 0.63517, "pcp": 0.0, "tw": 5.7989999999999995, "name": "Benissanet", "td": 5.1905024845041}, {"id": "WU", "hr": 85.0, "lat": 41.45215, "altitude": 42.0, "temp": 14.6, "dist": 0.02401423420351656, "lon": 2.24757, "pcp": 0.0, "tw": 14.599, "name": "Badalona - Museu", "td": 12.108370293499657}, {"id": "WW", "hr": 97.0, "lat": 41.79423, "altitude": 278.0, "temp": 14.2, "dist": 0.7499668092589771, "lon": 1.9368, "pcp": 0.0, "tw": 14.199, "name": "Art\u00e9s", "td": 13.714461776460189}, {"id": "XE", "hr": 100.0, "lat": 41.10393, "altitude": 5.0, "temp": 17.5, "dist": 0.02853229624886333, "lon": 1.201, "pcp": 0.0, "tw": 17.499, "name": "Tarragona - Complex Educatiu", "td": 17.5}, {"id": "WX", "hr": 97.0, "lat": 41.9178, "altitude": 668.0, "temp": 12.6, "dist": 0.9409387931252103, "lon": 0.88175, "pcp": 0.0, "tw": 12.599, "name": "Camarasa", "td": 12.119939879928417}, {"id": "XZ", "hr": 97.0, "lat": 42.18139, "altitude": 7.0, "temp": 13.9, "dist": 0.13023352225424967, "lon": 3.06202, "pcp": 0.0, "tw": 13.899000000000001, "name": "Torroella de Fluvi\u00e0", "td": 13.415488924877257}, {"id": "WJ", "hr": 99.0, "lat": 41.1223, "altitude": 141.0, "temp": 4.5, "dist": 0.4865134410513823, "lon": 0.72182, "pcp": 0.0, "tw": 4.499, "name": "el Masroig", "td": 4.349353776901869}, {"id": "UK", "hr": 90.0, "lat": 41.27861, "altitude": 161.0, "temp": 16.1, "dist": 0.1393905100339735, "lon": 1.80479, "pcp": 0.0, "tw": 16.099, "name": "Sant Pere de Ribes - PN del Garraf", "td": 14.443625183889441}, {"id": "XC", "hr": 100.0, "lat": 41.47892, "altitude": 147.0, "temp": 15.4, "dist": 0.47052007363915493, "lon": 1.97546, "pcp": 0.0, "tw": 15.399000000000001, "name": "Castellbisbal", "td": 15.4}, {"id": "XG", "hr": 90.0, "lat": 41.56734, "altitude": 123.0, "temp": 16.0, "dist": 0.30688340623819177, "lon": 2.22619, "pcp": 0.0, "tw": 15.999, "name": "Parets del Vall\u00e8s", "td": 14.344779515071822}, {"id": "C9", "hr": 99.0, "lat": 40.71825, "altitude": 240.0, "temp": 12.3, "dist": 0.4486042099557883, "lon": 0.39988, "pcp": 0.0, "tw": 12.299000000000001, "name": "Mas de Barberans", "td": 12.140460704387648}, {"id": "W9", "hr": 100.0, "lat": 42.14557, "altitude": 461.0, "temp": 15.4, "dist": 0.8079178162191527, "lon": 2.45451, "pcp": 0.0, "tw": 15.399000000000001, "name": "la Vall d'en Bas", "td": 15.4}, {"id": "DN", "hr": 99.0, "lat": 41.96095, "altitude": 150.0, "temp": 14.6, "dist": 0.6395092108155205, "lon": 2.63108, "pcp": 0.0, "tw": 14.599, "name": "Angl\u00e8s", "td": 14.437838379346237}, {"id": "X9", "hr": 89.0, "lat": 41.61265, "altitude": 176.0, "temp": 14.2, "dist": 0.43227559924658054, "lon": 2.16836, "pcp": 0.0, "tw": 14.199, "name": "Caldes de Montbui", "td": 12.398054535870173}, {"id": "UU", "hr": 92.0, "lat": 40.70776, "altitude": 3.0, "temp": 12.2, "dist": 0.2362043813460072, "lon": 0.6321, "pcp": 0.0, "tw": 12.199, "name": "Amposta", "td": 10.91588783537363}, {"id": "UI", "hr": 48.0, "lat": 42.26477, "altitude": 1386.0, "temp": 8.0, "dist": 0.9482256697227093, "lon": 1.76218, "pcp": 0.0, "tw": 7.999, "name": "Gisclareny", "td": -2.389989642922566}, {"id": "MV", "hr": 99.0, "lat": 42.13598, "altitude": 845.0, "temp": 10.1, "dist": 0.9324963243430269, "lon": 1.67295, "pcp": 0.0, "tw": 10.099, "name": "Guixers - Valls", "td": 9.94296901153293}, {"id": "ZB", "hr": 31.0, "lat": 42.51939, "altitude": 2451.0, "temp": 4.1, "dist": 0.9847055428899189, "lon": 1.36597, "pcp": 0.0, "tw": 4.098999999999999, "name": "Sal\u00f2ria (2.451 m)", "td": -11.664597668473883}, {"id": "XU", "hr": 98.0, "lat": 41.28801, "altitude": 148.0, "temp": 15.8, "dist": 0.20527415846393438, "lon": 1.72195, "pcp": 0.0, "tw": 15.799000000000001, "name": "Canyelles", "td": 15.472833665235209}, {"id": "XI", "hr": 95.0, "lat": 41.61817, "altitude": 247.0, "temp": 2.2, "dist": 0.8526789564783464, "lon": 0.87182, "pcp": 0.0, "tw": 2.1990000000000003, "name": "Mollerussa", "td": 1.4579705584559681}]